[
  {
    "id": "fac-0001",
    "company_id": "lonestar-aero-systems",
    "city": "Austin",
    "address": "9401 Metric Blvd",
    "state": "TX",
    "postal_code": "78758",
    "country": "USA",
    "lat": 30.4019,
    "lon": -97.7103,
    "kind": "HQ",
    "source_url": "https://demo.btx.example/erp/facilities/0001",
    "source_type": "demo",
    "source_name": "Simulated ERP Facility Master",
    "source_mode": "static_snapshot"
  },
  {
    "id": "fac-0002",
    "company_id": "trinity-defense-components",
    "city": "Dallas",
    "address": "2210 Commonwealth Dr",
    "state": "TX",
    "postal_code": "75247",
    "country": "USA",
    "lat": 32.8219,
    "lon": -96.8868,
    "kind": "HQ",
    "source_url": "https://demo.btx.example/erp/facilities/0002",
    "source_type": "demo",
    "source_name": "Simulated ERP Facility Master",
    "source_mode": "static_snapshot"
  },
  {
    "id": "fac-0003",
    "company_id": "pecan-valley-machining",
    "city": "San Antonio",
    "address": "4810 Industry Park Dr",
    "state": "TX",
    "postal_code": "78219",
    "country": "USA",
    "lat": 29.4418,
    "lon": -98.3759,
    "kind": "HQ",
    "source_url": "https://demo.btx.example/erp/facilities/0003",
    "source_type": "demo",
    "source_name": "Simulated ERP Facility Master",
    "source_mode": "static_snapshot"
  },
  {
    "id": "fac-0004",
    "company_id": "clearfork-turbine-works",
    "city": "Fort Worth",
    "address": "2650 Railhead Rd",
    "state": "TX",
    "postal_code": "76106",
    "country": "USA",
    "lat": 32.8074,
    "lon": -97.3538,
    "kind": "HQ",
    "source_url": "https://demo.btx.example/erp/facilities/0004",
    "source_type": "demo",
    "source_name": "Simulated ERP Facility Master",
    "source_mode": "static_snapshot"
  },
  {
    "id": "fac-0005",
    "company_id": "bluebonnet-avionics",
    "city": "Austin",
    "address": "6300 Burleson Rd",
    "state": "TX",
    "postal_code": "78744",
    "country": "USA",
    "lat": 30.1898,
    "lon": -97.712,
    "kind": "HQ",
    "source_url": "https://demo.btx.example/erp/facilities/0005",
    "source_type": "demo",
    "source_name": "Simulated ERP Facility Master",
    "source_mode": "static_snapshot"
  },
  {
    "id": "fac-0006",
    "company_id": "gulf-coast-propulsion",
    "city": "Houston",
    "address": "9100 Aerospace Ave",
    "state": "TX",
    "postal_code": "77034",
    "country": "USA",
    "lat": 29.615,
    "lon": -95.1992,
    "kind": "HQ",
    "source_url": "https://demo.btx.example/erp/facilities/0006",
    "source_type": "demo",
    "source_name": "Simulated ERP Facility Master",
    "source_mode": "static_snapshot"
  },
  {
    "id": "fac-0007",
    "company_id": "brazos-precision-castings",
    "city": "Waco",
    "address": "1501 Foundry Loop",
    "state": "TX",
    "postal_code": "76712",
    "country": "USA",
    "lat": 31.5186,
    "lon": -97.2228,
    "kind": "HQ",
    "source_url": "https://demo.btx.example/erp/facilities/0007",
    "source_type": "demo",
    "source_name": "Simulated ERP Facility Master",
    "source_mode": "static_snapshot"
  },
  {
    "id": "fac-0008",
    "company_id": "red-river-assemblies",
    "city": "Dallas",
    "address": "7700 Singleton Blvd",
    "state": "TX",
    "postal_code": "75212",
    "country": "USA",
    "lat": 32.7933,
    "lon": -96.8777,
    "kind": "HQ",
    "source_url": "https://demo.btx.example/erp/facilities/0008",
    "source_type": "demo",
    "source_name": "Simulated ERP Facility Master",
    "source_mode": "static_snapshot"
  },
  {
    "id": "fac-0009",
    "company_id": "high-plains-actuation",
    "city": "Amarillo",
    "address": "3400 Tradewind St",
    "state": "TX",
    "postal_code": "79111",
    "country": "USA",
    "lat": 35.2363,
    "lon": -101.7203,
    "kind": "HQ",
    "source_url": "https://demo.btx.example/erp/facilities/0009",
    "source_type": "demo",
    "source_name": "Simulated ERP Facility Master",
    "source_mode": "static_snapshot"
  },
  {
    "id": "fac-0010",
    "company_id": "alamo-composite-tooling",
    "city": "San Antonio",
    "address": "11600 Huebner Rd",
    "state": "TX",
    "postal_code": "78216",
    "country": "USA",
    "lat": 29.5337,
    "lon": -98.4809,
    "kind": "HQ",
    "source_url": "https://demo.btx.example/erp/facilities/0010",
    "source_type": "demo",
    "source_name": "Simulated ERP Facility Master",
    "source_mode": "static_snapshot"
  },
  {
    "id": "fac-0011",
    "company_id": "hill-country-aerostructures",
    "city": "Austin",
    "address": "15820 Bratton Ln",
    "state": "TX",
    "postal_code": "78728",
    "country": "USA",
    "lat": 30.4383,
    "lon": -97.6767,
    "kind": "HQ",
    "source_url": "https://demo.btx.example/erp/facilities/0011",
    "source_type": "demo",
    "source_name": "Simulated ERP Facility Master",
    "source_mode": "static_snapshot"
  },
  {
    "id": "fac-0012",
    "company_id": "caprock-guidance-systems",
    "city": "Lubbock",
    "address": "2801 Slaton Rd",
    "state": "TX",
    "postal_code": "79404",
    "country": "USA",
    "lat": 33.5796,
    "lon": -101.836,
    "kind": "HQ",
    "source_url": "https://demo.btx.example/erp/facilities/0012",
    "source_type": "demo",
    "source_name": "Simulated ERP Facility Master",
    "source_mode": "static_snapshot"
  },
  {
    "id": "fac-0013",
    "company_id": "cypress-creek-fabrication",
    "city": "Houston",
    "address": "10800 Tanner Rd",
    "state": "TX",
    "postal_code": "77041",
    "country": "USA",
    "lat": 29.8712,
    "lon": -95.5655,
    "kind": "HQ",
    "source_url": "https://demo.btx.example/erp/facilities/0013",
    "source_type": "demo",
    "source_name": "Simulated ERP Facility Master",
    "source_mode": "static_snapshot"
  },
  {
    "id": "fac-0014",
    "company_id": "mesquite-defense-manufacturing",
    "city": "Dallas",
    "address": "3200 Skyline Dr",
    "state": "TX",
    "postal_code": "75150",
    "country": "USA",
    "lat": 32.809,
    "lon": -96.6384,
    "kind": "HQ",
    "source_url": "https://demo.btx.example/erp/facilities/0014",
    "source_type": "demo",
    "source_name": "Simulated ERP Facility Master",
    "source_mode": "static_snapshot"
  },
  {
    "id": "fac-0015",
    "company_id": "violet-crown-micro-precision",
    "city": "Austin",
    "address": "2400 Montopolis Dr",
    "state": "TX",
    "postal_code": "78741",
    "country": "USA",
    "lat": 30.2247,
    "lon": -97.7288,
    "kind": "HQ",
    "source_url": "https://demo.btx.example/erp/facilities/0015",
    "source_type": "demo",
    "source_name": "Simulated ERP Facility Master",
    "source_mode": "static_snapshot"
  },
  {
    "id": "fac-0016",
    "company_id": "ranger-landing-gear",
    "city": "Fort Worth",
    "address": "9700 North Fwy",
    "state": "TX",
    "postal_code": "76177",
    "country": "USA",
    "lat": 32.9829,
    "lon": -97.3023,
    "kind": "HQ",
    "source_url": "https://demo.btx.example/erp/facilities/0016",
    "source_type": "demo",
    "source_name": "Simulated ERP Facility Master",
    "source_mode": "static_snapshot"
  },
  {
    "id": "fac-0017",
    "company_id": "live-oak-sensor-housings",
    "city": "San Marcos",
    "address": "1550 Clovis Barker Rd",
    "state": "TX",
    "postal_code": "78666",
    "country": "USA",
    "lat": 29.8995,
    "lon": -97.9585,
    "kind": "HQ",
    "source_url": "https://demo.btx.example/erp/facilities/0017",
    "source_type": "demo",
    "source_name": "Simulated ERP Facility Master",
    "source_mode": "static_snapshot"
  },
  {
    "id": "fac-0018",
    "company_id": "blackland-hydraulics",
    "city": "Waco",
    "address": "7300 Imperial Dr",
    "state": "TX",
    "postal_code": "76705",
    "country": "USA",
    "lat": 31.6079,
    "lon": -97.1158,
    "kind": "HQ",
    "source_url": "https://demo.btx.example/erp/facilities/0018",
    "source_type": "demo",
    "source_name": "Simulated ERP Facility Master",
    "source_mode": "static_snapshot"
  },
  {
    "id": "fac-0019",
    "company_id": "mesa-verde-aerosystems",
    "city": "Phoenix",
    "address": "3801 E Air Lane",
    "state": "AZ",
    "postal_code": "85034",
    "country": "USA",
    "lat": 33.4426,
    "lon": -112.0269,
    "kind": "HQ",
    "source_url": "https://demo.btx.example/erp/facilities/0019",
    "source_type": "demo",
    "source_name": "Simulated ERP Facility Master",
    "source_mode": "static_snapshot"
  },
  {
    "id": "fac-0020",
    "company_id": "rocky-mountain-flight-controls",
    "city": "Denver",
    "address": "4600 York St",
    "state": "CO",
    "postal_code": "80216",
    "country": "USA",
    "lat": 39.7896,
    "lon": -104.984,
    "kind": "HQ",
    "source_url": "https://demo.btx.example/erp/facilities/0020",
    "source_type": "demo",
    "source_name": "Simulated ERP Facility Master",
    "source_mode": "static_snapshot"
  },
  {
    "id": "fac-0021",
    "company_id": "carolina-nacelle-works",
    "city": "Greenville",
    "address": "2100 Perimeter Rd",
    "state": "SC",
    "postal_code": "29605",
    "country": "USA",
    "lat": 34.8049,
    "lon": -82.3743,
    "kind": "HQ",
    "source_url": "https://demo.btx.example/erp/facilities/0021",
    "source_type": "demo",
    "source_name": "Simulated ERP Facility Master",
    "source_mode": "static_snapshot"
  },
  {
    "id": "fac-0022",
    "company_id": "chesapeake-rotor-systems",
    "city": "Baltimore",
    "address": "5900 Holabird Ave",
    "state": "MD",
    "postal_code": "21224",
    "country": "USA",
    "lat": 39.2761,
    "lon": -76.5555,
    "kind": "HQ",
    "source_url": "https://demo.btx.example/erp/facilities/0022",
    "source_type": "demo",
    "source_name": "Simulated ERP Facility Master",
    "source_mode": "static_snapshot"
  },
  {
    "id": "fac-0023",
    "company_id": "great-lakes-engine-cases",
    "city": "Cincinnati",
    "address": "10100 Alliance Rd",
    "state": "OH",
    "postal_code": "45246",
    "country": "USA",
    "lat": 39.2748,
    "lon": -84.4526,
    "kind": "HQ",
    "source_url": "https://demo.btx.example/erp/facilities/0023",
    "source_type": "demo",
    "source_name": "Simulated ERP Facility Master",
    "source_mode": "static_snapshot"
  },
  {
    "id": "fac-0024",
    "company_id": "cascade-actuator-products",
    "city": "Seattle",
    "address": "7200 East Marginal Way",
    "state": "WA",
    "postal_code": "98108",
    "country": "USA",
    "lat": 47.5523,
    "lon": -122.3124,
    "kind": "HQ",
    "source_url": "https://demo.btx.example/erp/facilities/0024",
    "source_type": "demo",
    "source_name": "Simulated ERP Facility Master",
    "source_mode": "static_snapshot"
  },
  {
    "id": "fac-0025",
    "company_id": "desert-sky-machining",
    "city": "Tucson",
    "address": "6600 S Country Club Rd",
    "state": "AZ",
    "postal_code": "85756",
    "country": "USA",
    "lat": 32.1324,
    "lon": -110.947,
    "kind": "HQ",
    "source_url": "https://demo.btx.example/erp/facilities/0025",
    "source_type": "demo",
    "source_name": "Simulated ERP Facility Master",
    "source_mode": "static_snapshot"
  }
]
